{
"type": "FeatureCollection",
"name": "Villages_P",
"crs": { "type": "name", "properties": { "name": "urn:ogc:def:crs:OGC:1.3:CRS84" } },
"features": [
{ "type": "Feature", "properties": { "Name": "Allahdher", "Latitude": 33.9513889001, "Logitude": 72.271111099899997 }, "geometry": { "type": "Point", "coordinates": [ 72.271111099897382, 33.951388900077745, 0.0 ] } },
{ "type": "Feature", "properties": { "Name": "Roziabad", "Latitude": 33.964166699700002, "Logitude": 72.296111099800001 }, "geometry": { "type": "Point", "coordinates": [ 72.296111099847451, 33.964166699733482, 0.0 ] } },
{ "type": "Feature", "properties": { "Name": "Tano Dheri", "Latitude": 33.975555599899998, "Logitude": 72.315277800199993 }, "geometry": { "type": "Point", "coordinates": [ 72.315277800230376, 33.975555599911047, 0.0 ] } },
{ "type": "Feature", "properties": { "Name": "Natta Dheri", "Latitude": 33.980833300100002, "Logitude": 72.280555600200003 }, "geometry": { "type": "Point", "coordinates": [ 72.280555600160881, 33.980833300116785, 0.0 ] } },
{ "type": "Feature", "properties": { "Name": "Beka Dheri", "Latitude": 33.9855555997, "Logitude": 72.336111099899995 }, "geometry": { "type": "Point", "coordinates": [ 72.336111099947345, 33.985555599711233, 0.0 ] } },
{ "type": "Feature", "properties": { "Name": "Tordher", "Latitude": 33.991111099599998, "Logitude": 72.286666699400001 }, "geometry": { "type": "Point", "coordinates": [ 72.286666699408727, 33.991111099597617, 0.0 ] } },
{ "type": "Feature", "properties": { "Name": "Beka", "Latitude": 33.993611099799999, "Logitude": 72.3475000001 }, "geometry": { "type": "Point", "coordinates": [ 72.347500000124967, 33.993611099772465, 0.0 ] } },
{ "type": "Feature", "properties": { "Name": "Nabi", "Latitude": 33.995833300299999, "Logitude": 72.358611099699999 }, "geometry": { "type": "Point", "coordinates": [ 72.358611099722509, 33.995833300266668, 0.0 ] } },
{ "type": "Feature", "properties": { "Name": "Tano", "Latitude": 33.996666700200002, "Logitude": 72.321666700099996 }, "geometry": { "type": "Point", "coordinates": [ 72.321666700058245, 33.996666700208095, 0.0 ] } },
{ "type": "Feature", "properties": { "Name": "Salah", "Latitude": 34.000277800200003, "Logitude": 72.372500000100004 }, "geometry": { "type": "Point", "coordinates": [ 72.372500000074979, 34.000277800180413, 0.0 ] } },
{ "type": "Feature", "properties": { "Name": "Haryan", "Latitude": 34.0064413845, "Logitude": 72.384545171400006 }, "geometry": { "type": "Point", "coordinates": [ 72.384545171371002, 34.00644138448326, 0.0 ] } },
{ "type": "Feature", "properties": { "Name": "Balo", "Latitude": 34.012222199900002, "Logitude": 72.391666699599995 }, "geometry": { "type": "Point", "coordinates": [ 72.391666699558584, 34.012222199894666, 0.0 ] } },
{ "type": "Feature", "properties": { "Name": "Hund", "Latitude": 34.016111100400003, "Logitude": 72.4322222001 }, "geometry": { "type": "Point", "coordinates": [ 72.432222200094543, 34.016111100447006, 0.0 ] } },
{ "type": "Feature", "properties": { "Name": "Laftan Kot", "Latitude": 34.016944399700002, "Logitude": 72.387222199600004 }, "geometry": { "type": "Point", "coordinates": [ 72.387222199644839, 34.016944399664339, 0.0 ] } },
{ "type": "Feature", "properties": { "Name": "Rana Dheri", "Latitude": 34.018888900299999, "Logitude": 72.4858333 }, "geometry": { "type": "Point", "coordinates": [ 72.485833299966885, 34.018888900302557, 0.0 ] } },
{ "type": "Feature", "properties": { "Name": "Umardin Kalle", "Latitude": 34.019444399800001, "Logitude": 72.374722199700003 }, "geometry": { "type": "Point", "coordinates": [ 72.374722199669861, 34.019444399839244, 0.0 ] } },
{ "type": "Feature", "properties": { "Name": "Mana Banda", "Latitude": 34.0227778, "Logitude": 72.4136111 }, "geometry": { "type": "Point", "coordinates": [ 72.413611099972343, 34.022777799955577, 0.0 ] } },
{ "type": "Feature", "properties": { "Name": "Dhok Manara", "Latitude": 34.0227778, "Logitude": 72.525277799600005 }, "geometry": { "type": "Point", "coordinates": [ 72.525277799630828, 34.022777799955577, 0.0 ] } },
{ "type": "Feature", "properties": { "Name": "Dheri Zakaria", "Latitude": 34.0241667003, "Logitude": 72.377500000400005 }, "geometry": { "type": "Point", "coordinates": [ 72.377500000424732, 34.024166700333012, 0.0 ] } },
{ "type": "Feature", "properties": { "Name": "Sarfraz Banda", "Latitude": 34.025000000399999, "Logitude": 72.413888899699998 }, "geometry": { "type": "Point", "coordinates": [ 72.413888899653045, 34.025000000449722, 0.0 ] } },
{ "type": "Feature", "properties": { "Name": "Gar Yara Khel", "Latitude": 34.025000000399999, "Logitude": 72.5125 }, "geometry": { "type": "Point", "coordinates": [ 72.512499999975091, 34.025000000449722, 0.0 ] } },
{ "type": "Feature", "properties": { "Name": "Pakia", "Latitude": 34.0272222, "Logitude": 72.4227777997 }, "geometry": { "type": "Point", "coordinates": [ 72.422777799655762, 34.027222200044548, 0.0 ] } },
{ "type": "Feature", "properties": { "Name": "Gar Aka Khel", "Latitude": 34.029444399600003, "Logitude": 72.509166699700003 }, "geometry": { "type": "Point", "coordinates": [ 72.509166699683476, 34.029444399639374, 0.0 ] } },
{ "type": "Feature", "properties": { "Name": "Zarobal", "Latitude": 34.0308333, "Logitude": 72.564722198599995 }, "geometry": { "type": "Point", "coordinates": [ 72.564722198570678, 34.030833300016809, 0.0 ] } },
{ "type": "Feature", "properties": { "Name": "Nandar Dheri", "Latitude": 34.033333300199999, "Logitude": 72.349999999399998 }, "geometry": { "type": "Point", "coordinates": [ 72.349999999400495, 34.033333300191714, 0.0 ] } },
{ "type": "Feature", "properties": { "Name": "Batakara", "Latitude": 34.0336110999, "Logitude": 72.601111099600004 }, "geometry": { "type": "Point", "coordinates": [ 72.601111099597631, 34.033611099872417, 0.0 ] } },
{ "type": "Feature", "properties": { "Name": "Musa Banda", "Latitude": 34.033888899600001, "Logitude": 72.482499999699996 }, "geometry": { "type": "Point", "coordinates": [ 72.482499999675326, 34.033888899553119, 0.0 ] } },
{ "type": "Feature", "properties": { "Name": "Kafirkot", "Latitude": 34.040277800299997, "Logitude": 72.458333299800003 }, "geometry": { "type": "Point", "coordinates": [ 72.458333299841968, 34.040277800280307, 0.0 ] } },
{ "type": "Feature", "properties": { "Name": "Batlasi", "Latitude": 34.046388900399997, "Logitude": 72.408333299899994 }, "geometry": { "type": "Point", "coordinates": [ 72.408333299941887, 34.046388900427473, 0.0 ] } },
{ "type": "Feature", "properties": { "Name": "Dodher", "Latitude": 34.048888899700003, "Logitude": 72.496944399599997 }, "geometry": { "type": "Point", "coordinates": [ 72.496944399564427, 34.048888899703002, 0.0 ] } },
{ "type": "Feature", "properties": { "Name": "Anbar", "Latitude": 34.052777800299999, "Logitude": 72.4166667004 }, "geometry": { "type": "Point", "coordinates": [ 72.416666700407973, 34.052777800255342, 0.0 ] } },
{ "type": "Feature", "properties": { "Name": "Bahadur China", "Latitude": 34.052777800299999, "Logitude": 72.444444398599998 }, "geometry": { "type": "Point", "coordinates": [ 72.444444398590178, 34.052777800255342, 0.0 ] } },
{ "type": "Feature", "properties": { "Name": "Muhammad Islam Banda", "Latitude": 34.0555556001, "Logitude": 72.419444400399996 }, "geometry": { "type": "Point", "coordinates": [ 72.419444400438806, 34.055555600110893, 0.0 ] } },
{ "type": "Feature", "properties": { "Name": "Zaida", "Latitude": 34.0602777999, "Logitude": 72.467777800099995 }, "geometry": { "type": "Point", "coordinates": [ 72.467777800105466, 34.060277799880623, 0.0 ] } },
{ "type": "Feature", "properties": { "Name": "Khurd Talao", "Latitude": 34.0638888999, "Logitude": 72.450000000100005 }, "geometry": { "type": "Point", "coordinates": [ 72.450000000099976, 34.063888899852884, 0.0 ] } },
{ "type": "Feature", "properties": { "Name": "Thand Koi", "Latitude": 34.069722200299999, "Logitude": 72.516388899600003 }, "geometry": { "type": "Point", "coordinates": [ 72.516388899628055, 34.069722200319347, 0.0 ] } },
{ "type": "Feature", "properties": { "Name": "Marghoz Akakheil", "Latitude": 34.071061728399997, "Logitude": 72.5287464046 }, "geometry": { "type": "Point", "coordinates": [ 72.528746404622112, 34.071061728373316, 0.0 ] } },
{ "type": "Feature", "properties": { "Name": "Kalabat", "Latitude": 34.074166700200003, "Logitude": 72.549999999899995 }, "geometry": { "type": "Point", "coordinates": [ 72.549999999900137, 34.074166700233093, 0.0 ] } },
{ "type": "Feature", "properties": { "Name": "Kaddi", "Latitude": 34.076666700399997, "Logitude": 72.484999999899998 }, "geometry": { "type": "Point", "coordinates": [ 72.484999999850174, 34.076666700407941, 0.0 ] } },
{ "type": "Feature", "properties": { "Name": "Qadarabad", "Latitude": 34.069707877, "Logitude": 72.550477442000002 }, "geometry": { "type": "Point", "coordinates": [ 72.550477442000044, 34.069707877000042, 0.0 ] } },
{ "type": "Feature", "properties": { "Name": "Khunda Jabba", "Latitude": 34.053551104, "Logitude": 72.427820636999996 }, "geometry": { "type": "Point", "coordinates": [ 72.427820637000082, 34.053551104000064, 0.0 ] } },
{ "type": "Feature", "properties": { "Name": "Sheikh Dheri", "Latitude": 34.038104067, "Logitude": 72.396828166000006 }, "geometry": { "type": "Point", "coordinates": [ 72.396828166000034, 34.038104067000056, 0.0 ] } },
{ "type": "Feature", "properties": { "Name": "Manki", "Latitude": 34.012346438999998, "Logitude": 72.32624014 }, "geometry": { "type": "Point", "coordinates": [ 72.326240140000039, 34.012346439000055, 0.0 ] } },
{ "type": "Feature", "properties": { "Name": "Farooq Banda", "Latitude": 33.974027176, "Logitude": 72.260092604999997 }, "geometry": { "type": "Point", "coordinates": [ 72.260092605000068, 33.97402717600005, 0.0 ] } },
{ "type": "Feature", "properties": { "Name": "Wisal Abad", "Latitude": 33.970461247000003, "Logitude": 72.244939798999994 }, "geometry": { "type": "Point", "coordinates": [ 72.244939799000065, 33.97046124700006, 0.0 ] } },
{ "type": "Feature", "properties": { "Name": "Bazar", "Latitude": 33.973424154, "Logitude": 72.308718346999996 }, "geometry": { "type": "Point", "coordinates": [ 72.308718347000081, 33.973424154000043, 0.0 ] } },
{ "type": "Feature", "properties": { "Name": "Kiyara", "Latitude": 34.055418467000003, "Logitude": 72.64549626 }, "geometry": { "type": "Point", "coordinates": [ 72.645496260000073, 34.055418467000038, 0.0 ] } },
{ "type": "Feature", "properties": { "Name": "Hamlet", "Latitude": 34.053734286999997, "Logitude": 72.637137214999996 }, "geometry": { "type": "Point", "coordinates": [ 72.637137215000052, 34.053734287000054, 0.0 ] } },
{ "type": "Feature", "properties": { "Name": "Pontia", "Latitude": 34.029304263, "Logitude": 72.611652512000006 }, "geometry": { "type": "Point", "coordinates": [ 72.611652512000035, 34.029304263000029, 0.0 ] } },
{ "type": "Feature", "properties": { "Name": "Ashiq Abad", "Latitude": 34.025080569000004, "Logitude": 72.523965576999998 }, "geometry": { "type": "Point", "coordinates": [ 72.52396557700007, 34.025080569000067, 0.0 ] } },
{ "type": "Feature", "properties": { "Name": "Yousafi", "Latitude": 34.029712701000001, "Logitude": 72.532385546 }, "geometry": { "type": "Point", "coordinates": [ 72.532385546000057, 34.029712701000051, 0.0 ] } },
{ "type": "Feature", "properties": { "Name": "Loe Dhand", "Latitude": 34.042898924, "Logitude": 72.425001799 }, "geometry": { "type": "Point", "coordinates": [ 72.425001799000029, 34.042898924000042, 0.0 ] } },
{ "type": "Feature", "properties": { "Name": "Kia Kabal", "Latitude": 34.025363131, "Logitude": 72.420237158999996 }, "geometry": { "type": "Point", "coordinates": [ 72.420237159000067, 34.025363131000063, 0.0 ] } },
{ "type": "Feature", "properties": { "Name": "Chota Lahore", "Latitude": 34.038245981000003, "Logitude": 72.365419074000002 }, "geometry": { "type": "Point", "coordinates": [ 72.365419074000044, 34.038245981000046, 0.0 ] } },
{ "type": "Feature", "properties": { "Name": "Jabar", "Latitude": 33.969316208000002, "Logitude": 72.286698944999998 }, "geometry": { "type": "Point", "coordinates": [ 72.286698945000069, 33.969316208000066, 0.0 ] } },
{ "type": "Feature", "properties": { "Name": "Mohalla Faridabad", "Latitude": 33.984364931999998, "Logitude": 72.294174706999996 }, "geometry": { "type": "Point", "coordinates": [ 72.294174707000082, 33.984364932000062, 0.0 ] } },
{ "type": "Feature", "properties": { "Name": "Mohallah Baghe Haram", "Latitude": 33.981143736999996, "Logitude": 72.289136561999996 }, "geometry": { "type": "Point", "coordinates": [ 72.289136562000067, 33.981143737000025, 0.0 ] } },
{ "type": "Feature", "properties": { "Name": "Indus Green Town", "Latitude": 33.957273604000001, "Logitude": 72.253868597999997 }, "geometry": { "type": "Point", "coordinates": [ 72.253868598000054, 33.957273604000079, 0.0 ] } },
{ "type": "Feature", "properties": { "Name": "Topi", "Latitude": 34.071801163700002, "Logitude": 72.623012737699995 }, "geometry": { "type": "Point", "coordinates": [ 72.623012737733134, 34.071801163749186, 0.0 ] } },
{ "type": "Feature", "properties": { "Name": "Kotha", "Latitude": 34.067089830999997, "Logitude": 72.583323328199995 }, "geometry": { "type": "Point", "coordinates": [ 72.583323328155885, 34.067089830957642, 0.0 ] } },
{ "type": "Feature", "properties": { "Name": "Khazana", "Latitude": 34.040382760599996, "Logitude": 72.548878250599998 }, "geometry": { "type": "Point", "coordinates": [ 72.548878250635482, 34.040382760628205, 0.0 ] } },
{ "type": "Feature", "properties": { "Name": "Ghar Munara", "Latitude": 34.022112465900001, "Logitude": 72.508665359600002 }, "geometry": { "type": "Point", "coordinates": [ 72.50866535963695, 34.022112465871771, 0.0 ] } },
{ "type": "Feature", "properties": { "Name": "Baja", "Latitude": 34.100253965299999, "Logitude": 72.542513192399994 }, "geometry": { "type": "Point", "coordinates": [ 72.542513192444886, 34.100253965303239, 0.0 ] } },
{ "type": "Feature", "properties": { "Name": "Bamkheil", "Latitude": 34.099397359299999, "Logitude": 72.529568924599999 }, "geometry": { "type": "Point", "coordinates": [ 72.529568924573169, 34.09939735934114, 0.0 ] } },
{ "type": "Feature", "properties": { "Name": "Panjpir", "Latitude": 34.087404875899999, "Logitude": 72.478648459 }, "geometry": { "type": "Point", "coordinates": [ 72.478648459048401, 34.087404875871755, 0.0 ] } },
{ "type": "Feature", "properties": { "Name": "Shahmansoor", "Latitude": 34.072747396099999, "Logitude": 72.448476893500001 }, "geometry": { "type": "Point", "coordinates": [ 72.448476893494473, 34.07274739607584, 0.0 ] } },
{ "type": "Feature", "properties": { "Name": "Matani Changan", "Latitude": 33.995652859499998, "Logitude": 72.290099968899995 }, "geometry": { "type": "Point", "coordinates": [ 72.290099968946407, 33.995652859486938, 0.0 ] } },
{ "type": "Feature", "properties": { "Name": "Lahor Gharbi", "Latitude": 34.048591869399999, "Logitude": 72.357331354099998 }, "geometry": { "type": "Point", "coordinates": [ 72.357331354130807, 34.048591869372174, 0.0 ] } },
{ "type": "Feature", "properties": { "Name": "Lahor Sharqi", "Latitude": 34.050495438200002, "Logitude": 72.369466605300005 }, "geometry": { "type": "Point", "coordinates": [ 72.369466605260541, 34.050495438176839, 0.0 ] } },
{ "type": "Feature", "properties": { "Name": "Jalsai", "Latitude": 34.046331381400002, "Logitude": 72.332465986599999 }, "geometry": { "type": "Point", "coordinates": [ 72.33246598661988, 34.046331381416636, 0.0 ] } },
{ "type": "Feature", "properties": { "Name": "Jalbai", "Latitude": 34.014446603899998, "Logitude": 72.267744647300006 }, "geometry": { "type": "Point", "coordinates": [ 72.267744647261296, 34.014446603938509, 0.0 ] } },
{ "type": "Feature", "properties": { "Name": "Jehangira", "Latitude": 33.965072788100002, "Logitude": 72.230030190299999 }, "geometry": { "type": "Point", "coordinates": [ 72.230030190318885, 33.96507278806753, 0.0 ] } },
{ "type": "Feature", "properties": { "Name": "Khunda Maira", "Latitude": 34.059374841100002, "Logitude": 72.425375111999998 }, "geometry": { "type": "Point", "coordinates": [ 72.425375112049011, 34.059374841086147, 0.0 ] } },
{ "type": "Feature", "properties": { "Name": "Galla", "Latitude": 34.045391643400002, "Logitude": 72.643764540600003 }, "geometry": { "type": "Point", "coordinates": [ 72.643764540646416, 34.045391643432211, 0.0 ] } },
{ "type": "Feature", "properties": { "Name": "Marguz Yarakheil", "Latitude": 34.067932460800002, "Logitude": 72.533331375900005 }, "geometry": { "type": "Point", "coordinates": [ 72.533331375904524, 34.067932460807, 0.0 ] } },
{ "type": "Feature", "properties": { "Name": "Swabi", "Latitude": 34.117410720199999, "Logitude": 72.474251726700004 }, "geometry": { "type": "Point", "coordinates": [ 72.474251726669991, 34.117410720204681, 0.0 ] } }
]
}
