{
"type": "FeatureCollection",
"name": "Villages_M",
"crs": { "type": "name", "properties": { "name": "urn:ogc:def:crs:OGC:1.3:CRS84" } },
"features": [
{ "type": "Feature", "properties": { "Name": "Karzhdo Ghari", "Latitude": 36.427608051999997, "Logitude": 72.330167002500005 }, "geometry": { "type": "Point", "coordinates": [ 72.330167002481275, 36.427608051968974, 0.0 ] } },
{ "type": "Feature", "properties": { "Name": "Balakot", "Latitude": 36.339744213199999, "Logitude": 72.293474536399998 }, "geometry": { "type": "Point", "coordinates": [ 72.293474536388061, 36.339744213187295, 0.0 ] } },
{ "type": "Feature", "properties": { "Name": "Zhendoli", "Latitude": 36.309572007299998, "Logitude": 72.269819624299998 }, "geometry": { "type": "Point", "coordinates": [ 72.269819624312348, 36.309572007341494, 0.0 ] } },
{ "type": "Feature", "properties": { "Name": "Wemzhad", "Latitude": 36.421079541899999, "Logitude": 72.360959633600004 }, "geometry": { "type": "Point", "coordinates": [ 72.36095963355595, 36.42107954190265, 0.0 ] } },
{ "type": "Feature", "properties": { "Name": "Pash Khoro", "Latitude": 36.304729251600001, "Logitude": 72.295137196 }, "geometry": { "type": "Point", "coordinates": [ 72.295137195957579, 36.304729251572098, 0.0 ] } },
{ "type": "Feature", "properties": { "Name": "Jonali", "Latitude": 36.330446442800003, "Logitude": 72.346414148600005 }, "geometry": { "type": "Point", "coordinates": [ 72.346414148579385, 36.330446442826315, 0.0 ] } },
{ "type": "Feature", "properties": { "Name": "Madak Lasht", "Latitude": 36.3511758796, "Logitude": 72.326632017899996 }, "geometry": { "type": "Point", "coordinates": [ 72.326632017914591, 36.351175879649368, 0.0 ] } },
{ "type": "Feature", "properties": { "Name": "Khanuj", "Latitude": 36.347054287699997, "Logitude": 72.349595831100004 }, "geometry": { "type": "Point", "coordinates": [ 72.349595831050863, 36.347054287708829, 0.0 ] } },
{ "type": "Feature", "properties": { "Name": "Hondri", "Latitude": 36.309194768600001, "Logitude": 72.310966292399996 }, "geometry": { "type": "Point", "coordinates": [ 72.310966292360959, 36.309194768641937, 0.0 ] } },
{ "type": "Feature", "properties": { "Name": "Porghost", "Latitude": 36.376696796799997, "Logitude": 72.357434849900002 }, "geometry": { "type": "Point", "coordinates": [ 72.357434849890637, 36.376696796758857, 0.0 ] } },
{ "type": "Feature", "properties": { "Name": "Galatori", "Latitude": 36.359671438299998, "Logitude": 72.3687760113 }, "geometry": { "type": "Point", "coordinates": [ 72.368776011318758, 36.359671438251667, 0.0 ] } },
{ "type": "Feature", "properties": { "Name": "Pharogh", "Latitude": 36.361021248500002, "Logitude": 72.352549839299996 }, "geometry": { "type": "Point", "coordinates": [ 72.352549839304501, 36.361021248532658, 0.0 ] } },
{ "type": "Feature", "properties": { "Name": "Bizh Barth Ghari", "Latitude": 36.367605316599999, "Logitude": 72.299482744900004 }, "geometry": { "type": "Point", "coordinates": [ 72.299482744845704, 36.36760531658588, 0.0 ] } },
{ "type": "Feature", "properties": { "Name": "Bizh Bagh", "Latitude": 36.342132936500001, "Logitude": 72.326495734999995 }, "geometry": { "type": "Point", "coordinates": [ 72.32649573500926, 36.342132936497983, 0.0 ] } },
{ "type": "Feature", "properties": { "Name": "Buni", "Latitude": 36.274579158100003, "Logitude": 72.256345870499999 }, "geometry": { "type": "Point", "coordinates": [ 72.256345870508227, 36.274579158143055, 0.0 ] } },
{ "type": "Feature", "properties": { "Name": "Koragh", "Latitude": 36.2190963444, "Logitude": 72.163782981099999 }, "geometry": { "type": "Point", "coordinates": [ 72.163782981090989, 36.219096344352984, 0.0 ] } },
{ "type": "Feature", "properties": { "Name": "Murdir", "Latitude": 36.2623269881, "Logitude": 72.159571007899999 }, "geometry": { "type": "Point", "coordinates": [ 72.159571007867228, 36.262326988148963, 0.0 ] } },
{ "type": "Feature", "properties": { "Name": "Warijun Payan", "Latitude": 36.298938561699998, "Logitude": 72.199897584300004 }, "geometry": { "type": "Point", "coordinates": [ 72.199897584337862, 36.29893856170419, 0.0 ] } },
{ "type": "Feature", "properties": { "Name": "Gerwazagh Ghari", "Latitude": 36.3500912867, "Logitude": 72.260509220700001 }, "geometry": { "type": "Point", "coordinates": [ 72.260509220669746, 36.350091286707332, 0.0 ] } },
{ "type": "Feature", "properties": { "Name": "Sehat", "Latitude": 36.341700732900001, "Logitude": 72.254698583500002 }, "geometry": { "type": "Point", "coordinates": [ 72.254698583448175, 36.341700732892726, 0.0 ] } },
{ "type": "Feature", "properties": { "Name": "Muzhdeh", "Latitude": 36.268694041800003, "Logitude": 72.181933303899996 }, "geometry": { "type": "Point", "coordinates": [ 72.181933303862152, 36.268694041837719, 0.0 ] } },
{ "type": "Feature", "properties": { "Name": "Nogram", "Latitude": 36.286643151600003, "Logitude": 72.174667535599994 }, "geometry": { "type": "Point", "coordinates": [ 72.174667535556694, 36.286643151642423, 0.0 ] } },
{ "type": "Feature", "properties": { "Name": "Shunu", "Latitude": 36.299522320599998, "Logitude": 72.178982111300002 }, "geometry": { "type": "Point", "coordinates": [ 72.178982111241893, 36.299522320620639, 0.0 ] } },
{ "type": "Feature", "properties": { "Name": "Zaini", "Latitude": 36.3053339951, "Logitude": 72.198242766700005 }, "geometry": { "type": "Point", "coordinates": [ 72.198242766684913, 36.305333995079145, 0.0 ] } },
{ "type": "Feature", "properties": { "Name": "Uthal Ghari", "Latitude": 36.309866392300002, "Logitude": 72.171388967400006 }, "geometry": { "type": "Point", "coordinates": [ 72.171388967394904, 36.309866392277705, 0.0 ] } },
{ "type": "Feature", "properties": { "Name": "Chardama Zom", "Latitude": 36.315376236100001, "Logitude": 72.153563120100003 }, "geometry": { "type": "Point", "coordinates": [ 72.153563120069265, 36.315376236112243, 0.0 ] } },
{ "type": "Feature", "properties": { "Name": "Warijun Bala", "Latitude": 36.307206598599997, "Logitude": 72.215705957099999 }, "geometry": { "type": "Point", "coordinates": [ 72.215705957049593, 36.307206598593424, 0.0 ] } },
{ "type": "Feature", "properties": { "Name": "Drasan", "Latitude": 36.3094875751, "Logitude": 72.229890174900007 }, "geometry": { "type": "Point", "coordinates": [ 72.229890174900703, 36.3094875750702, 0.0 ] } },
{ "type": "Feature", "properties": { "Name": "Sher Andur", "Latitude": 36.321599462400002, "Logitude": 72.231761041 }, "geometry": { "type": "Point", "coordinates": [ 72.231761040954424, 36.321599462402752, 0.0 ] } },
{ "type": "Feature", "properties": { "Name": "Duno", "Latitude": 36.325236779100003, "Logitude": 72.242678322000003 }, "geometry": { "type": "Point", "coordinates": [ 72.242678321984556, 36.325236779061967, 0.0 ] } },
{ "type": "Feature", "properties": { "Name": "Turgram", "Latitude": 36.3384180061, "Logitude": 72.238462615499998 }, "geometry": { "type": "Point", "coordinates": [ 72.238462615532185, 36.338418006082897, 0.0 ] } },
{ "type": "Feature", "properties": { "Name": "Ragh", "Latitude": 36.362908608700003, "Logitude": 72.174537405199999 }, "geometry": { "type": "Point", "coordinates": [ 72.174537405190534, 36.362908608721064, 0.0 ] } },
{ "type": "Feature", "properties": { "Name": "Gharthan", "Latitude": 36.3509222132, "Logitude": 72.198898365299996 }, "geometry": { "type": "Point", "coordinates": [ 72.19889836533315, 36.350922213180851, 0.0 ] } },
{ "type": "Feature", "properties": { "Name": "Shuch", "Latitude": 36.356062680599997, "Logitude": 72.159905314599996 }, "geometry": { "type": "Point", "coordinates": [ 72.159905314624837, 36.356062680623367, 0.0 ] } },
{ "type": "Feature", "properties": { "Name": "Braz", "Latitude": 36.350656788499997, "Logitude": 72.153130523000002 }, "geometry": { "type": "Point", "coordinates": [ 72.153130523031606, 36.350656788460839, 0.0 ] } },
{ "type": "Feature", "properties": { "Name": "Moli Kosh", "Latitude": 36.242975004900003, "Logitude": 72.155056470399998 }, "geometry": { "type": "Point", "coordinates": [ 72.155056470387038, 36.242975004853513, 0.0 ] } },
{ "type": "Feature", "properties": { "Name": "Zainian", "Latitude": 36.337088325099998, "Logitude": 72.174172844099999 }, "geometry": { "type": "Point", "coordinates": [ 72.174172844104234, 36.337088325059682, 0.0 ] } },
{ "type": "Feature", "properties": { "Name": "Toson", "Latitude": 36.3291333122, "Logitude": 72.262165113899997 }, "geometry": { "type": "Point", "coordinates": [ 72.262165113926201, 36.329133312188034, 0.0 ] } },
{ "type": "Feature", "properties": { "Name": "Batoran Dur", "Latitude": 36.322959646800001, "Logitude": 72.264171752500005 }, "geometry": { "type": "Point", "coordinates": [ 72.264171752504296, 36.322959646843643, 0.0 ] } },
{ "type": "Feature", "properties": { "Name": "Warzu Dur", "Latitude": 36.2949498061, "Logitude": 72.182230733200001 }, "geometry": { "type": "Point", "coordinates": [ 72.182230733225182, 36.294949806132564, 0.0 ] } },
{ "type": "Feature", "properties": { "Name": "Dorongagh", "Latitude": 36.2135823419, "Logitude": 72.1132509153 }, "geometry": { "type": "Point", "coordinates": [ 72.113250915314524, 36.213582341892909, 0.0 ] } },
{ "type": "Feature", "properties": { "Name": "Bindu", "Latitude": 36.2100403942, "Logitude": 72.098693238300001 }, "geometry": { "type": "Point", "coordinates": [ 72.098693238262328, 36.210040394210125, 0.0 ] } },
{ "type": "Feature", "properties": { "Name": "Ozagh", "Latitude": 36.207863550600003, "Logitude": 72.082685432600002 }, "geometry": { "type": "Point", "coordinates": [ 72.082685432626675, 36.207863550612984, 0.0 ] } },
{ "type": "Feature", "properties": { "Name": "Shagrome", "Latitude": 36.346759363399997, "Logitude": 72.138380344500007 }, "geometry": { "type": "Point", "coordinates": [ 72.138380344521792, 36.346759363376371, 0.0 ] } },
{ "type": "Feature", "properties": { "Name": "Barumkagh", "Latitude": 36.235622486499999, "Logitude": 72.140134876399998 }, "geometry": { "type": "Point", "coordinates": [ 72.140134876341037, 36.235622486505406, 0.0 ] } },
{ "type": "Feature", "properties": { "Name": "Kosht Balla", "Latitude": 36.249301654100002, "Logitude": 72.149718946999997 }, "geometry": { "type": "Point", "coordinates": [ 72.149718946957805, 36.249301654111868, 0.0 ] } },
{ "type": "Feature", "properties": { "Name": "Sandragh", "Latitude": 36.256699224400002, "Logitude": 72.148987679100003 }, "geometry": { "type": "Point", "coordinates": [ 72.148987679132205, 36.256699224366166, 0.0 ] } },
{ "type": "Feature", "properties": { "Name": "Ano Sor", "Latitude": 36.299520715, "Logitude": 72.097814411300007 }, "geometry": { "type": "Point", "coordinates": [ 72.09781441126222, 36.299520714961467, 0.0 ] } },
{ "type": "Feature", "properties": { "Name": "Noghor Zom", "Latitude": 36.300498962900001, "Logitude": 72.090998523300001 }, "geometry": { "type": "Point", "coordinates": [ 72.090998523264616, 36.300498962906218, 0.0 ] } },
{ "type": "Feature", "properties": { "Name": "Attahk", "Latitude": 36.3124583747, "Logitude": 72.039023512900002 }, "geometry": { "type": "Point", "coordinates": [ 72.039023512921617, 36.312458374697783, 0.0 ] } },
{ "type": "Feature", "properties": { "Name": "Wuz", "Latitude": 36.294048233300003, "Logitude": 72.147374663899996 }, "geometry": { "type": "Point", "coordinates": [ 72.147374663849405, 36.294048233334529, 0.0 ] } },
{ "type": "Feature", "properties": { "Name": "Jamalandeh", "Latitude": 36.245838171400003, "Logitude": 72.127041440499994 }, "geometry": { "type": "Point", "coordinates": [ 72.127041440481207, 36.245838171403229, 0.0 ] } },
{ "type": "Feature", "properties": { "Name": "Sarwarabad", "Latitude": 36.228622539500002, "Logitude": 72.143594063099997 }, "geometry": { "type": "Point", "coordinates": [ 72.143594063068619, 36.22862253949139, 0.0 ] } },
{ "type": "Feature", "properties": { "Name": "Istabone", "Latitude": 36.2225923843, "Logitude": 72.107759209899996 }, "geometry": { "type": "Point", "coordinates": [ 72.107759209937811, 36.222592384339293, 0.0 ] } },
{ "type": "Feature", "properties": { "Name": "Gasht Lasht", "Latitude": 36.222453619600003, "Logitude": 72.142328578100006 }, "geometry": { "type": "Point", "coordinates": [ 72.142328578066113, 36.222453619583256, 0.0 ] } },
{ "type": "Feature", "properties": { "Name": "Shurdonik", "Latitude": 36.320395129600001, "Logitude": 72.136044467100007 }, "geometry": { "type": "Point", "coordinates": [ 72.136044467127846, 36.320395129600506, 0.0 ] } },
{ "type": "Feature", "properties": { "Name": "Lashtdeh", "Latitude": 36.342491770800002, "Logitude": 72.1269020445 }, "geometry": { "type": "Point", "coordinates": [ 72.12690204447307, 36.342491770779858, 0.0 ] } },
{ "type": "Feature", "properties": { "Name": "Bandok", "Latitude": 36.312674287999997, "Logitude": 72.028325270799996 }, "geometry": { "type": "Point", "coordinates": [ 72.028325270823757, 36.312674287991541, 0.0 ] } },
{ "type": "Feature", "properties": { "Name": "Rumin Kulum", "Latitude": 36.311290629699997, "Logitude": 72.017436527200005 }, "geometry": { "type": "Point", "coordinates": [ 72.017436527152086, 36.311290629714868, 3393.0 ] } },
{ "type": "Feature", "properties": { "Name": "Geht", "Latitude": 36.317004113099998, "Logitude": 72.216794503299994 }, "geometry": { "type": "Point", "coordinates": [ 72.216794503247087, 36.317004113075619, 0.0 ] } }
]
}
